city,state,lat,lon
Pune,Maharashtra,18.5204,73.8567
Delhi,Delhi,28.6139,77.2090
Kolkata,West Bengal,22.5726,88.3639
Chennai,Tamil Nadu,13.0827,80.2707
Hyderabad,Telangana,17.3850,78.4867
Ahmedabad,Gujarat,23.0225,72.5714
Lucknow,Uttar Pradesh,26.8467,80.9462
